{"generated_utc":"2026-07-13T14:18:32Z","source":"OpenAQ v3 \u2014 real monitoring-station measurements (EEA + national networks)","max_age_h":6,"cities":{"athens":[{"id":3299740,"name":"Korydallos Ioanninvn 19","lat":37.98625,"lon":23.64081,"vals":{"pm2_5":14.6},"time":{"pm2_5":"2026-07-13T14:00:00Z"}},{"id":3760146,"name":"AGIOS THEOLOGOS","lat":38.01135,"lon":23.71436,"vals":{"pm2_5":8.2},"time":{"pm2_5":"2026-07-13T14:00:00Z"}},{"id":4008655,"name":"\u039a\u03a1\u03a5\u039f\u039d\u0395\u03a1\u0399","lat":38.14283,"lon":23.82882,"vals":{"pm2_5":5.4},"time":{"pm2_5":"2026-07-13T14:00:00Z"}},{"id":4122723,"name":"PERISTERI ANTHOUPOLI","lat":38.01871,"lon":23.69341,"vals":{"pm2_5":7.1},"time":{"pm2_5":"2026-07-13T14:00:00Z"}},{"id":5748086,"name":"Ioanninon2","lat":37.98626,"lon":23.64081,"vals":{"pm2_5":18.6},"time":{"pm2_5":"2026-07-13T14:00:00Z"}},{"id":5976205,"name":"korydallos ","lat":37.98638,"lon":23.64057,"vals":{"pm2_5":20.2},"time":{"pm2_5":"2026-07-13T14:00:00Z"}}],"thess":[{"id":3088877,"name":"Panorama Thessalonikis","lat":40.59067,"lon":23.03439,"vals":{"pm2_5":12.9},"time":{"pm2_5":"2026-07-13T14:00:00Z"}},{"id":3305479,"name":"Depot Thessalonikis","lat":40.5992,"lon":22.95733,"vals":{"pm2_5":5.5},"time":{"pm2_5":"2026-07-13T14:00:00Z"}}],"larissa":[],"volos":[],"patras":[],"heraklion":[],"ioannina":[],"kozani":[]}}